[
    {
       "lat":"28.6600",
       "lng":"77.2300",
       "country":"India",
       "iso2":"IN",
       "capital":"admin",
       "population":"29617000",
       "population_proper":"16753235",
       "value":"Delhi",
       "label":"Delhi"
    },
    {
       "lat":"18.9667",
       "lng":"72.8333",
       "country":"India",
       "iso2":"IN",
       "capital":"admin",
       "population":"23355000",
       "population_proper":"12478447",
       "value":"Maharashtra",
       "label":"Maharashtra"
    },
    {
       "lat":"22.5411",
       "lng":"88.3378",
       "country":"India",
       "iso2":"IN",
       "capital":"admin",
       "population":"17560000",
       "population_proper":"4496694",
       "value":"West Bengal",
       "label":"West Bengal"
    },
    {
       "lat":"12.9699",
       "lng":"77.5980",
       "country":"India",
       "iso2":"IN",
       "capital":"admin",
       "population":"13707000",
       "population_proper":"8443675",
       "value":"Karnataka",
       "label":"Karnataka"
    },
    {
       "city":"Chennai",
       "lat":"13.0825",
       "lng":"80.2750",
       "country":"India",
       "iso2":"IN",
       "state":"Tamil Nadu",
       "capital":"admin",
       "population":"11324000",
       "population_proper":"6727000"
    },
    {
       "lat":"17.3667",
       "lng":"78.4667",
       "country":"India",
       "iso2":"IN",
       "capital":"admin",
       "population":"9746000",
       "population_proper":"6993262",
       "value":"Telangana",
       "label":"Telangana"
    },
    {
       "lat":"23.0300",
       "lng":"72.5800",
       "country":"India",
       "iso2":"IN",
       "capital":"minor",
       "population":"7410000",
       "population_proper":"5570585",
       "value":"Gujarat",
       "label":"Gujarat"
    },
    {
       "lat":"26.8470",
       "lng":"80.9470",
       "country":"India",
       "iso2":"IN",
       "capital":"admin",
       "population":"3382000",
       "population_proper":"3382000",
       "value":"Uttar Pradesh",
       "label":"Uttar Pradesh"
    },
    {
       "lat":"26.9167",
       "lng":"75.8667",
       "country":"India",
       "iso2":"IN",
       "capital":"admin",
       "population":"3073350",
       "population_proper":"3073350",
       "value":"Rajasthan",
       "label":"Rajasthan"
    },
    {
       "lat":"22.7206",
       "lng":"75.8472",
       "country":"India",
       "iso2":"IN",
       "capital":"",
       "population":"2201927",
       "population_proper":"2201927",
       "value":"Madhya Pradesh",
       "label":"Madhya Pradesh"
    },
    {
       "lat":"17.7333",
       "lng":"83.3167",
       "country":"India",
       "iso2":"IN",
       "capital":"",
       "population":"2035922",
       "population_proper":"2035922",
       "value":"Andhra Pradesh",
       "label":"Andhra Pradesh"
    },
    {
       "lat":"25.6100",
       "lng":"85.1414",
       "country":"India",
       "iso2":"IN",
       "capital":"admin",
       "population":"1684222",
       "population_proper":"1684222",
       "value":"Bihar",
       "label":"Bihar"
    },
    {
       "lat":"30.9083",
       "lng":"75.8486",
       "country":"India",
       "iso2":"IN",
       "capital":"",
       "population":"1649000",
       "population_proper":"1545368",
       "value":"Punjab",
       "label":"Punjab"
    },
    {
       "lat":"9.9197",
       "lng":"78.1194",
       "country":"India",
       "iso2":"IN",
       "capital":"minor",
       "population":"1561129",
       "population_proper":"1561129",
       "value":"Tamil Nadu",
       "label":"Tamil Nadu"
    },
    {
       "lat":"22.8000",
       "lng":"86.1833",
       "country":"India",
       "iso2":"IN",
       "capital":"",
       "population":"1558000",
       "population_proper":"1558000",
       "value":"Jharkhand",
       "label":"Jharkhand"
    },
    {
       "lat":"28.4333",
       "lng":"77.3167",
       "country":"India",
       "iso2":"IN",
       "capital":"",
       "population":"1394000",
       "population_proper":"1394000",
       "value":"Haryana",
       "label":"Haryana"
    },
    {
       "lat":"34.0911",
       "lng":"74.8061",
       "country":"India",
       "iso2":"IN",
       "capital":"admin",
       "population":"1180570",
       "population_proper":"1180570",
       "value":"Jammu and Kashmīr",
       "label":"Jammu and Kashmīr"
    },
    {
       "lat":"21.2167",
       "lng":"81.4333",
       "country":"India",
       "iso2":"IN",
       "capital":"",
       "population":"1097000",
       "population_proper":"1097000",
       "value":"Chhattīsgarh",
       "label":"Chhattīsgarh"
    },
    {
       "lat":"30.7353",
       "lng":"76.7911",
       "country":"India",
       "iso2":"IN",
       "capital":"admin",
       "population":"1026459",
       "population_proper":"1026459",
       "value":"Chandīgarh",
       "label":"Chandīgarh"
    },
    {
       "lat":"26.1500",
       "lng":"91.7700",
       "country":"India",
       "iso2":"IN",
       "capital":"admin",
       "population":"957352",
       "population_proper":"957352",
       "value":"Assam",
       "label":"Assam"
    },
    {
       "lat":"20.2644",
       "lng":"85.8281",
       "country":"India",
       "iso2":"IN",
       "capital":"admin",
       "population":"837737",
       "population_proper":"837737",
       "value":"Odisha",
       "label":"Odisha"
    },
    {
       "lat":"8.5000",
       "lng":"76.8997",
       "country":"India",
       "iso2":"IN",
       "capital":"admin",
       "population":"743691",
       "population_proper":"743691",
       "value":"Kerala",
       "label":"Kerala"
    },
    {
       "lat":"30.3180",
       "lng":"78.0290",
       "country":"India",
       "iso2":"IN",
       "capital":"admin",
       "population":"578420",
       "population_proper":"578420",
       "value":"Uttarakhand",
       "label":"Uttarakhand"
    },
    {
       "lat":"23.8333",
       "lng":"91.2667",
       "country":"India",
       "iso2":"IN",
       "capital":"admin",
       "population":"522613",
       "population_proper":"522613",
       "value":"Tripura",
       "label":"Tripura"
    },
    {
       "lat":"23.7104",
       "lng":"92.7200",
       "country":"India",
       "iso2":"IN",
       "capital":"admin",
       "population":"283021",
       "population_proper":"265331",
       "value":"Mizoram",
       "label":"Mizoram"
    },
    {
       "lat":"24.8200",
       "lng":"93.9500",
       "country":"India",
       "iso2":"IN",
       "capital":"admin",
       "population":"268243",
       "population_proper":"268243",
       "value":"Manipur",
       "label":"Manipur"
    },
    {
       "lat":"11.9300",
       "lng":"79.8300",
       "country":"India",
       "iso2":"IN",
       "capital":"admin",
       "population":"227411",
       "population_proper":"227411",
       "value":"Puducherry",
       "label":"Puducherry"
    },
    {
       "lat":"31.1033",
       "lng":"77.1722",
       "country":"India",
       "iso2":"IN",
       "capital":"admin",
       "population":"206575",
       "population_proper":"206575",
       "value":"Himachal Pradesh",
       "label":"Himachal Pradesh"
    },
    {
       "lat":"25.5744",
       "lng":"91.8789",
       "country":"India",
       "iso2":"IN",
       "capital":"admin",
       "population":"143229",
       "population_proper":"143229",
       "value":"Meghalaya",
       "label":"Meghalaya"
    },
    {
       "lat":"11.6667",
       "lng":"92.7500",
       "country":"India",
       "iso2":"IN",
       "capital":"admin",
       "population":"127562",
       "population_proper":"112050",
       "value":"Andaman and Nicobar Islands",
       "label":"Andaman and Nicobar Islands"
    },
    {
       "lat":"27.3300",
       "lng":"88.6200",
       "country":"India",
       "iso2":"IN",
       "capital":"admin",
       "population":"100286",
       "population_proper":"100286",
       "value":"Sikkim",
       "label":"Sikkim"
    },
    {
       "lat":"25.6667",
       "lng":"94.1194",
       "country":"India",
       "iso2":"IN",
       "capital":"admin",
       "population":"99039",
       "population_proper":"99039",
       "value":"Nagaland",
       "label":"Nagaland"
    },
    {
       "lat":"27.1000",
       "lng":"93.6200",
       "country":"India",
       "iso2":"IN",
       "capital":"admin",
       "population":"59490",
       "population_proper":"59490",
       "value":"Arunachal Pradesh",
       "label":"Arunachal Pradesh"
    },
    {
       "lat":"15.4800",
       "lng":"73.8300",
       "country":"India",
       "iso2":"IN",
       "capital":"admin",
       "population":"40017",
       "population_proper":"40017",
       "value":"Goa",
       "label":"Goa"
    },
    {
       "lat":"20.2666",
       "lng":"73.0166",
       "country":"India",
       "iso2":"IN",
       "capital":"",
       "population":"27359",
       "population_proper":"27359",
       "value":"Dadra and Nagar Haveli",
       "label":"Dadra and Nagar Haveli"
    },
    {
       "lat":"20.7197",
       "lng":"70.9904",
       "country":"India",
       "iso2":"IN",
       "capital":"",
       "population":"23779",
       "population_proper":"23779",
       "value":"Daman and Diu",
       "label":"Daman and Diu"
    },
    {
       "lat":"10.5626",
       "lng":"72.6369",
       "country":"India",
       "iso2":"IN",
       "capital":"admin",
       "population":"10688",
       "population_proper":"10688",
       "value":"Lakshadweep",
       "label":"Lakshadweep"
    }
 ]